<gpx xmlns=" http://www.topografix.com/GPX/1/1" 
xmlns:xsi = "http://www.w3.org/2001/XMLSchema-instance" 
xsi:schemaLocation="http://www.topografix.com/GPX/1/1 http://www.topografix.com/GPX/1/1/gpx.xsd"
version="1.1"
creator="Voilactus Jolly Harbor AntiguePlan Entries">

<wpt lat="40.76000" lon="-105.23333"><time>2020-03-18T13:30:00Z</time><name>Jolly Harbor Antigue/Phillipsburg St Martin/Plan</name>
</wpt>
<wpt lat="40.76000" lon="-105.23"><time>2020-03-18T19:13:49Z</time><name>Jolly Harbor Antigue/Phillipsburg St Martin/GPS</name>
</wpt>
<wpt lat="40.76000" lon="-105.23"><time>2020-03-18T21:26:01Z</time><name>Jolly Harbor Antigue/Phillipsburg St Martin/DR</name>
</wpt>
<wpt lat="39.63333" lon="-105.9"><time>2020-03-19T05:15:00Z</time><name>Jolly Harbor Antigue/Phillipsburg St Martin/DR</name>
</wpt>
<wpt lat="39.08833" lon="-109.08333"><time>2020-03-19T16:13:49Z</time><name>Phillipsburg St Martin/St Barts/DR</name>
</wpt>
<wpt lat="38.58333" lon="-109.08333"><time>2020-03-19T22:28:21Z</time><name>Jolly Harbor Antigue/Phillipsburg St Martin/Plan</name>
</wpt>
<wpt lat="38.57500" lon="-109.07"><time>2020-03-20T05:03:09Z</time><name>St Barts/St Kitts/GPS</name>
</wpt>
<wpt lat="36.07500" lon="-110.29667"><time>2020-03-21T19:01:48Z</time><name>St Barts/St Kitts/DR</name>
</wpt>
<wpt lat="35.83667" lon="-110.55833"><time>2020-03-22T01:01:48Z</time><name>St Barts/St Kitts/DR</name>
</wpt>
<wpt lat="35.83667" lon="-110.55833"><time>2020-03-22T01:28:21Z</time><name>Jolly Harbor Antigue/Phillipsburg St Martin/Plan</name>
</wpt>

<rte><rtept lat="40.76000" lon="-105.23333"><time>2020-03-18T13:30:00Z</time><name>Jolly Harbor Antigue/Phillipsburg St Martin/Plan</name>
</rtept>
<rtept lat="38.58333" lon="-109.08333"><time>2020-03-19T22:28:21Z</time><name>Jolly Harbor Antigue/Phillipsburg St Martin/Plan</name>
</rtept>
<rtept lat="35.83667" lon="-110.55833"><time>2020-03-22T01:28:21Z</time><name>Jolly Harbor Antigue/Phillipsburg St Martin/Plan</name>
</rtept>

</rte>
<trk>
<trkseg><trkpt lat="40.76000" lon="-105.23"><time>2020-03-18T19:13:49Z</time><name>Jolly Harbor Antigue/Phillipsburg St Martin</name>
</trkpt>
<trkpt lat="40.76000" lon="-105.23"><time>2020-03-18T21:26:01Z</time><name>Jolly Harbor Antigue/Phillipsburg St Martin</name>
</trkpt>
<trkpt lat="39.63333" lon="-105.9"><time>2020-03-19T05:15:00Z</time><name>Jolly Harbor Antigue/Phillipsburg St Martin</name>
</trkpt>
<trkpt lat="39.08833" lon="-109.08333"><time>2020-03-19T16:13:49Z</time><name>Phillipsburg St Martin/St Barts</name>
</trkpt>
<trkpt lat="38.57500" lon="-109.07"><time>2020-03-20T05:03:09Z</time><name>St Barts/St Kitts</name>
</trkpt>
<trkpt lat="36.07500" lon="-110.29667"><time>2020-03-21T19:01:48Z</time><name>St Barts/St Kitts</name>
</trkpt>
<trkpt lat="35.83667" lon="-110.55833"><time>2020-03-22T01:01:48Z</time><name>St Barts/St Kitts</name>
</trkpt>

</trkseg>
</trk>
</gpx>